{"class":"VERSION","release":"3.16","rev":"3.16-4","proto_major":3,"proto_minor":11}
{"class":"DEVICES","devices":[{"class":"DEVICE","path":"/dev/ttyUSB0","driver":"NMEA0183","activated":"2018-03-12T16:29:27.438Z","flags":1,"native":0,"bps":4800,"parity":"N","stopbits":1,"cycle":1.00}]}
{"class":"WATCH","enable":true,"json":false,"nmea":true,"raw":0,"scaled":false,"timing":false,"split24":false,"pps":false}
$GPGGA,162928.000,1259.4369,N,07742.7899,E,1,05,4.2,922.8,M,-88.3,M,,0000*78
$GPGSA,A,3,05,02,12,06,19,,,,,,,,9.8,4.2,8.9*3E
$GPRMC,162928.000,A,1259.4369,N,07742.7899,E,0.37,281.80,120318,,,A*68
$GPGGA,162929.000,1259.4369,N,07742.7899,E,1,05,4.2,922.8,M,-88.3,M,,0000*79
$GPGSA,A,3,05,02,12,06,19,,,,,,,,9.8,4.2,8.9*3E
$GPGSV,3,1,12,05,60,163,25,02,50,349,32,12,44,333,31,06,24,027,19*7F
$GPGSV,3,2,12,19,23,059,18,17,15,075,04,24,30,248,20,28,04,139,05*7A
$GPGSV,3,3,12,57,27,064,,20,10,208,,13,08,176,,04,08,169,*7E
$GPRMC,162929.000,A,1259.4369,N,07742.7899,E,0.16,281.80,120318,,,A*6A
$GPGGA,162930.000,1259.4368,N,07742.7899,E,1,05,4.2,922.7,M,-88.3,M,,0000*7F
$GPGSA,A,3,05,02,12,06,19,,,,,,,,9.8,4.2,8.9*3E
$GPRMC,162930.000,A,1259.4368,N,07742.7899,E,0.68,281.80,120318,,,A*6A
$GPGGA,162931.000,1259.4367,N,07742.7899,E,1,05,4.2,922.7,M,-88.3,M,,0000*71
$GPGSA,A,3,05,02,12,06,19,,,,,,,,9.8,4.2,8.9*3E
$GPRMC,162931.000,A,1259.4367,N,07742.7899,E,0.32,281.80,120318,,,A*6B
$GPGGA,162932.000,1259.4367,N,07742.7901,E,1,05,4.2,922.6,M,-88.3,M,,0000*73
$GPGSA,A,3,05,02,12,06,19,,,,,,,,9.8,4.2,8.9*3E
$GPRMC,162932.000,A,1259.4367,N,07742.7901,E,0.44,281.80,120318,,,A*69
$GPGGA,162933.000,1259.4367,N,07742.7901,E,1,05,4.2,922.6,M,-88.3,M,,0000*72
$GPGSA,A,3,05,02,12,06,19,,,,,,,,9.8,4.2,8.9*3E
$GPRMC,162933.000,A,1259.4367,N,07742.7901,E,0.22,281.80,120318,,,A*68
$GPGGA,162934.000,1259.4364,N,07742.7901,E,1,05,4.2,922.6,M,-88.3,M,,0000*76
$GPGSA,A,3,05,02,12,06,19,,,,,,,,9.8,4.2,8.9*3E
$GPGSV,3,1,12,05,60,163,24,02,50,349,32,12,44,333,31,06,24,027,20*74
$GPGSV,3,2,12,19,23,059,17,17,15,075,07,24,30,248,20,28,04,139,05*76
$GPGSV,3,3,12,57,27,064,,20,10,208,,13,08,176,,04,08,169,*7E
$GPRMC,162934.000,A,1259.4364,N,07742.7901,E,0.22,281.80,120318,,,A*6C
$GPGGA,162935.000,1259.4361,N,07742.7900,E,1,06,3.5,922.6,M,-88.3,M,,0000*70
$GPGSA,A,3,05,02,12,06,19,17,,,,,,,7.6,3.5,6.7*38
$GPRMC,162935.000,A,1259.4361,N,07742.7900,E,0.10,281.80,120318,,,A*68
$GPGGA,162936.000,1259.4361,N,07742.7900,E,1,05,4.2,922.6,M,-88.3,M,,0000*70
$GPGSA,A,3,05,02,12,06,19,,,,,,,,9.8,4.2,8.9*3E
$GPRMC,162936.000,A,1259.4361,N,07742.7900,E,0.30,281.80,120318,,,A*69
$GPGGA,162937.000,1259.4359,N,07742.7901,E,1,06,3.5,922.6,M,-88.3,M,,0000*78
$GPGSA,A,3,05,02,12,06,19,17,,,,,,,7.6,3.5,6.7*38
$GPRMC,162937.000,A,1259.4359,N,07742.7901,E,0.21,281.80,120318,,,A*62
$GPGGA,162938.000,1259.4357,N,07742.7902,E,1,06,3.5,922.5,M,-88.3,M,,0000*79
$GPGSA,A,3,05,02,12,06,19,17,,,,,,,7.6,3.5,6.7*38
$GPRMC,162938.000,A,1259.4357,N,07742.7902,E,0.36,281.80,120318,,,A*66
$GPGGA,162939.000,1259.4357,N,07742.7903,E,1,06,3.6,922.5,M,-88.3,M,,0000*7A
$GPGSA,A,3,05,02,12,06,19,17,,,,,,,7.6,3.6,6.7*3B
$GPGSV,3,1,12,05,60,163,24,02,50,349,32,12,44,333,31,06,24,027,20*74
$GPGSV,3,2,12,19,23,059,17,17,15,075,08,24,30,248,19,28,04,139,04*72
$GPGSV,3,3,12,57,27,064,,20,10,208,,13,08,176,,04,08,169,*7E
$GPRMC,162939.000,A,1259.4357,N,07742.7903,E,0.63,281.80,120318,,,A*66
$GPGGA,162940.000,1259.4357,N,07742.7902,E,1,05,4.2,922.6,M,-88.3,M,,0000*76
$GPGSA,A,3,05,02,12,06,19,,,,,,,,9.8,4.2,8.9*3E
$GPRMC,162940.000,A,1259.4357,N,07742.7902,E,0.07,281.80,120318,,,A*6B
$GPGGA,162941.000,1259.4359,N,07742.7903,E,1,06,3.6,922.6,M,-88.3,M,,0000*78
$GPGSA,A,3,05,02,12,06,19,17,,,,,,,7.6,3.6,6.7*3B
$GPRMC,162941.000,A,1259.4359,N,07742.7903,E,0.38,281.80,120318,,,A*69
$GPGGA,162942.000,1259.4363,N,07742.7904,E,1,06,3.6,922.6,M,-88.3,M,,0000*75
$GPGSA,A,3,05,02,12,06,19,17,,,,,,,7.6,3.6,6.7*3B
$GPRMC,162942.000,A,1259.4363,N,07742.7904,E,0.61,281.80,120318,,,A*68
$GPGGA,162943.000,1259.4366,N,07742.7906,E,1,06,3.6,922.6,M,-88.3,M,,0000*73
$GPGSA,A,3,05,02,12,06,19,17,,,,,,,7.6,3.6,6.7*3B
$GPRMC,162943.000,A,1259.4366,N,07742.7906,E,0.78,281.80,120318,,,A*66
$GPGGA,162944.000,1259.4365,N,07742.7907,E,1,06,3.8,922.5,M,-88.3,M,,0000*7B
$GPGSA,A,3,05,02,12,57,06,19,,,,,,,9.3,3.8,8.5*36
$GPGSV,3,1,12,05,60,163,24,02,50,349,32,12,44,333,31,57,27,064,16*71
$GPGSV,3,2,12,06,24,027,20,19,23,059,18,17,15,075,07,24,30,248,20*7E
$GPGSV,3,3,12,28,04,139,04,20,10,208,,13,08,176,,04,08,169,*7A
$GPRMC,162944.000,A,1259.4365,N,07742.7907,E,0.78,281.80,120318,,,A*63
$GPGGA,162945.000,1259.4365,N,07742.7907,E,1,07,3.0,922.6,M,-88.3,M,,0000*70
$GPGSA,A,3,05,02,12,57,06,19,17,,,,,,6.5,3.0,5.8*31
$GPRMC,162945.000,A,1259.4365,N,07742.7907,E,0.44,281.80,120318,,,A*6D
$GPGGA,162946.000,1259.4366,N,07742.7907,E,1,06,3.8,922.6,M,-88.3,M,,0000*79
$GPGSA,A,3,05,02,12,57,06,19,,,,,,,9.3,3.8,8.5*36
$GPRMC,162946.000,A,1259.4366,N,07742.7907,E,0.05,281.80,120318,,,A*68
$GPGGA,162947.000,1259.4367,N,07742.7906,E,1,06,3.8,922.6,M,-88.3,M,,0000*78
$GPGSA,A,3,05,02,12,57,06,19,,,,,,,9.3,3.8,8.5*36
$GPRMC,162947.000,A,1259.4367,N,07742.7906,E,0.24,281.80,120318,,,A*6A
$GPGGA,162948.000,1259.4363,N,07742.7904,E,1,07,3.0,922.7,M,-88.3,M,,0000*79
$GPGSA,A,3,05,02,12,57,06,19,17,,,,,,6.5,3.0,5.8*31
$GPRMC,162948.000,A,1259.4363,N,07742.7904,E,0.31,281.80,120318,,,A*67
$GPGGA,162949.000,1259.4361,N,07742.7903,E,1,06,3.8,922.8,M,-88.3,M,,0000*7B
$GPGSA,A,3,05,02,12,57,06,19,,,,,,,9.3,3.8,8.5*36
$GPGSV,3,1,12,05,60,163,25,02,50,349,32,12,44,333,31,57,27,064,16*70
$GPGSV,3,2,12,06,24,027,19,19,23,059,18,17,15,075,08,24,30,248,21*7A
$GPGSV,3,3,12,20,10,208,,13,08,176,,04,08,169,,25,06,325,*7E
$GPRMC,162949.000,A,1259.4361,N,07742.7903,E,0.04,281.80,120318,,,A*65
$GPGGA,162950.000,1259.4361,N,07742.7902,E,1,06,3.8,922.9,M,-88.3,M,,0000*73
$GPGSA,A,3,05,02,12,57,06,19,,,,,,,9.3,3.8,8.5*36
$GPRMC,162950.000,A,1259.4361,N,07742.7902,E,0.40,281.80,120318,,,A*6C
$GPGGA,162951.000,1259.4362,N,07742.7901,E,1,06,3.8,922.9,M,-88.3,M,,0000*72
$GPGSA,A,3,05,02,12,57,06,19,,,,,,,9.3,3.8,8.5*36
$GPRMC,162951.000,A,1259.4362,N,07742.7901,E,0.63,281.80,120318,,,A*6C
$GPGGA,162952.000,1259.4362,N,07742.7901,E,1,06,3.8,922.9,M,-88.3,M,,0000*71
$GPGSA,A,3,05,02,12,57,06,19,,,,,,,9.3,3.8,8.5*36
$GPRMC,162952.000,A,1259.4362,N,07742.7901,E,0.54,281.80,120318,,,A*6B
$GPGGA,162953.000,1259.4363,N,07742.7902,E,1,06,3.8,922.9,M,-88.3,M,,0000*72
$GPGSA,A,3,05,02,12,57,06,19,,,,,,,9.3,3.8,8.5*36
$GPRMC,162953.000,A,1259.4363,N,07742.7902,E,0.74,281.80,120318,,,A*6A
$GPGGA,162954.000,1259.4363,N,07742.7902,E,1,06,3.8,922.8,M,-88.3,M,,0000*74
$GPGSA,A,3,05,02,12,57,06,19,,,,,,,9.3,3.8,8.5*36
$GPGSV,3,1,12,05,60,163,24,02,50,349,33,12,44,333,31,57,27,064,17*71
$GPGSV,3,2,12,06,24,027,19,19,23,059,18,17,15,075,04,24,30,248,22*75
$GPGSV,3,3,12,20,10,208,,13,08,176,,04,08,169,,25,06,325,*7E
$GPRMC,162954.000,A,1259.4363,N,07742.7902,E,0.54,281.80,120318,,,A*6F
$GPGGA,162955.000,1259.4362,N,07742.7903,E,1,06,3.9,922.8,M,-88.3,M,,0000*74
$GPGSA,A,3,05,02,12,57,06,19,,,,,,,9.3,3.9,8.5*37
$GPRMC,162955.000,A,1259.4362,N,07742.7903,E,0.70,281.80,120318,,,A*68
$GPGGA,162956.000,1259.4359,N,07742.7902,E,1,06,3.9,922.8,M,-88.3,M,,0000*7E
$GPGSA,A,3,05,02,12,57,06,19,,,,,,,9.3,3.9,8.5*37
$GPRMC,162956.000,A,1259.4359,N,07742.7902,E,0.18,281.80,120318,,,A*6C
$GPGGA,162957.000,1259.4358,N,07742.7900,E,1,07,3.0,922.9,M,-88.3,M,,0000*75
$GPGSA,A,3,05,02,12,57,06,19,17,,,,,,6.5,3.0,5.8*31
$GPRMC,162957.000,A,1259.4358,N,07742.7900,E,0.29,281.80,120318,,,A*6C
$GPGGA,162958.000,1259.4356,N,07742.7899,E,1,07,3.0,923.0,M,-88.3,M,,0000*7D
$GPGSA,A,3,05,02,12,57,06,19,17,,,,,,6.5,3.0,5.8*31
$GPRMC,162958.000,A,1259.4356,N,07742.7899,E,0.18,281.80,120318,,,A*6E
$GPGGA,162959.000,1259.4356,N,07742.7898,E,1,07,3.0,923.1,M,-88.3,M,,0000*7C
$GPGSA,A,3,05,02,12,57,06,19,17,,,,,,6.5,3.0,5.8*31
$GPGSV,3,1,12,05,60,163,24,02,50,349,33,12,44,333,31,57,27,064,17*71
$GPGSV,3,2,12,06,24,027,18,19,23,059,18,17,15,075,11,24,30,248,22*70
$GPGSV,3,3,12,20,10,208,,13,08,176,,04,08,169,,25,06,325,*7E
$GPRMC,162959.000,A,1259.4356,N,07742.7898,E,0.29,281.80,120318,,,A*6C
$GPGGA,163000.000,1259.4355,N,07742.7897,E,1,07,3.0,923.1,M,-88.3,M,,0000*74
$GPGSA,A,3,05,02,12,57,06,19,17,,,,,,6.5,3.0,5.8*31
$GPRMC,163000.000,A,1259.4355,N,07742.7897,E,0.09,281.80,120318,,,A*66
$GPGGA,163001.000,1259.4356,N,07742.7897,E,1,07,3.0,923.1,M,-88.3,M,,0000*76
$GPGSA,A,3,05,02,12,57,06,19,17,,,,,,6.5,3.0,5.8*31
$GPRMC,163001.000,A,1259.4356,N,07742.7897,E,0.38,281.80,120318,,,A*66
$GPGGA,163002.000,1259.4358,N,07742.7897,E,1,07,3.0,923.1,M,-88.3,M,,0000*7B
